{"address":"Lower River Tce / Ellis St","latitude":-27.482279,"longitude":153.028723,"name":"122 - LOWER RIVER TCE / ELLIS ST","number":122,"cluster":0}
{"address":"Main St / Darragh St","latitude":-27.47059,"longitude":153.036046,"name":"91 - MAIN ST / DARRAGH ST","number":91,"cluster":2}
{"address":"Sydney St Ferry Terminal / Park","latitude":-27.474531,"longitude":153.042728,"name":"88 - SYDNEY ST FERRY TERMINAL / PARK","number":88,"cluster":3}
{"address":"Browne St / James St","latitude":-27.461881,"longitude":153.046986,"name":"75 - BROWNE ST / JAMES ST","number":75,"cluster":3}
{"address":"Kurilpa Point / Montague Rd","latitude":-27.469658,"longitude":153.016696,"name":"98 - KURILPA POINT / MONTAGUE RD","number":98,"cluster":2}
{"address":"Montague Rd / Skinner St","latitude":-27.48172,"longitude":153.00436,"name":"109 - MONTAGUE RD / SKINNER ST","number":109,"cluster":1}
{"address":"Macquarie St / Guyatt Park","latitude":-27.493626,"longitude":153.001482,"name":"149 - MACQUARIE ST / GUYATT PARK","number":149,"cluster":1}
{"address":"Bi-centennial Bike Way / Lang Pde","latitude":-27.476076,"longitude":153.002459,"name":"139 - BI-CENTENNIAL BIKE WAY / LANG PDE","number":139,"cluster":1}
{"address":"Sir William McGregor Dr / Sir Fred Schonnell","latitude":-27.493963,"longitude":153.011938,"name":"24 - SIR WILLIAM MCGREGOR DR / SIR FRED SCHONNELL","number":24,"cluster":0}
{"address":"Vulture St / Tribune St","latitude":-27.482197,"longitude":153.020894,"name":"117 - VULTURE ST / TRIBUNE ST","number":117,"cluster":0}
{"address":"Lamington St / Refinery Pde","latitude":-27.465226,"longitude":153.050864,"name":"73 - LAMINGTON ST / REFINERY PDE","number":73,"cluster":3}
{"address":"King George Square 2","latitude":-27.468447,"longitude":153.024662,"name":"1101 - KING GEORGE SQUARE 2","number":1101,"cluster":2}
{"address":"Mary St / George St","latitude":-27.473021,"longitude":153.025988,"name":"23 - MARY STREET / GEORGE STREET","number":23,"cluster":2}
{"address":"McLachlan St / Winn St","latitude":-27.457825,"longitude":153.036866,"name":"54 - MCLACHLAN ST / WINN ST","number":54,"cluster":4}
{"address":"Grey St / QCA","latitude":-27.48148,"longitude":153.02368,"name":"93 - GREY ST / QCA","number":93,"cluster":0}
{"address":"Roma St / Turbot St","latitude":-27.467464,"longitude":153.022094,"name":"31 - ROMA ST / TURBOT ST","number":31,"cluster":2}
{"address":"Thynne Rd / College Rd","latitude":-27.499963,"longitude":153.017633,"name":"97 - THYNNE RD / COLLEGE RD","number":97,"cluster":0}
{"address":"Sandford St / Brisbane St","latitude":-27.490776,"longitude":152.994747,"name":"147 - SANDFORD ST / BRISBANE ST","number":147,"cluster":1}
{"address":"James St / Harcourt St","latitude":-27.458199,"longitude":153.041688,"name":"77 - JAMES ST / HARCOURT ST","number":77,"cluster":4}
{"address":"Sidon St / Little Stanley St","latitude":-27.481808,"longitude":153.025477,"name":"119 - SIDON ST / LITTLE STANLEY ST","number":119,"cluster":0}
{"address":"Commercial Rd / Teneriffe Ferry Terminal","latitude":-27.452027,"longitude":153.04911,"name":"67 - COMMERCIAL RD / TENERIFFE FERRY TERMINAL","number":67,"cluster":4}
{"address":"Turbot St / Wickham Tce","latitude":-27.464628,"longitude":153.026863,"name":"39 - TURBOT ST / WICKHAM TCE","number":39,"cluster":2}
{"address":"Alden St / Wickham St","latitude":-27.456085,"longitude":153.03453,"name":"55 - ALDEN ST / WICKHAM ST","number":55,"cluster":4}
{"address":"Roma St / Makerston St","latitude":-27.46637,"longitude":153.018506,"name":"35 - ROMA STREET / MAKERSTON STREET","number":35,"cluster":2}
{"address":"Macquarie St / Munro St","latitude":-27.492876,"longitude":153.006071,"name":"150 - MACQUARIE ST / MUNRO ST","number":150,"cluster":1}
{"address":"Barker St / Brunswick St","latitude":-27.464681,"longitude":153.042561,"name":"80 - BARKER ST / BRUNSWICK ST","number":80,"cluster":3}
{"address":"Malt St / Brunswick St","latitude":-27.461041,"longitude":153.037902,"name":"78 - MALT ST / BRUNSWICK ST","number":78,"cluster":4}
{"address":"Chermside St / Commercial Rd","latitude":-27.454482,"longitude":153.046802,"name":"65 - CHERMSIDE ST / COMMERCIAL RD","number":65,"cluster":4}
{"address":"Queen St / Adelaide St","latitude":-27.463405,"longitude":153.031142,"name":"44 - QUEEN STREET / ADELAIDE STREET","number":44,"cluster":2}
{"address":"Constance St / St Pauls Tce","latitude":-27.453717,"longitude":153.034042,"name":"56 - CONSTANCE ST / ST PAULS TCE","number":56,"cluster":4}
{"address":"Gipps St / Wickham St","latitude":-27.458641,"longitude":153.03208,"name":"50 - GIPPS ST / WICKHAM ST","number":50,"cluster":4}
{"address":"Stanley St / Melbourne St","latitude":-27.475039,"longitude":153.020323,"name":"95 - STANLEY ST / MELBOURNE ST","number":95,"cluster":0}
{"address":"Coronation Dr / Go Between Bridge","latitude":-27.468839,"longitude":153.011115,"name":"133 - CORONATION DR / GO BETWEEN BRIDGE","number":133,"cluster":0}
{"address":"Vernon Tce / Ethel St","latitude":-27.454394,"longitude":153.049519,"name":"68 - VERNON TCE / ETHEL ST","number":68,"cluster":4}
{"address":"Railway Tce / Cribb St","latitude":-27.468845,"longitude":153.007364,"name":"134 - RAILWAY TCE / CRIBB ST","number":134,"cluster":1}
{"address":"Brunswick St Mall / Wickham St","latitude":-27.457512,"longitude":153.033841,"name":"52 - BRUNSWICK ST MALL / WICKHAM ST","number":52,"cluster":4}
{"address":"Turbot St / Barry Pde","latitude":-27.46123,"longitude":153.031077,"name":"47 - TURBOT ST / BARRY PDE","number":47,"cluster":2}
{"address":"Dunmore Tce / Kingsford St","latitude":-27.476003,"longitude":153.000676,"name":"140 - DUNMORE TCE / KINGSFORD ST","number":140,"cluster":1}
{"address":"Mary St / Albert St","latitude":-27.472044,"longitude":153.027193,"name":"16 - MARY STREET / ALBERT STREET","number":16,"cluster":2}
{"address":"James St / McLachlan St","latitude":-27.456276,"longitude":153.039196,"name":"59 - JAMES ST / MCLACHLAN ST","number":59,"cluster":4}
{"address":"Little Stanley St / Tribune St","latitude":-27.480385,"longitude":153.023564,"name":"18 - LITTLE STANLEY ST / TRIBUNE ST","number":18,"cluster":0}
{"address":"Queen St / Wharf St","latitude":-27.465043,"longitude":153.030991,"name":"43 - QUEEN ST / WHARF ST","number":43,"cluster":2}
{"address":"Charlotte St / Edward St","latitude":-27.469924,"longitude":153.02822,"name":"9 - CHARLOTTE STREET / EDWARD STREET","number":9,"cluster":2}
{"address":"Market St / Mary St","latitude":-27.469702,"longitude":153.029828,"name":"5 - MARKET STREET / MARY STREET","number":5,"cluster":2}
{"address":"Charlotte St / Eagle St","latitude":-27.468675,"longitude":153.029834,"name":"4 - CHARLOTTE STREET / EAGLE STREET","number":4,"cluster":2}
{"address":"King George Square / Ann St","latitude":-27.468422,"longitude":153.024635,"name":"11 - KING GEORGE SQUARE / ANN ST","number":11,"cluster":2}
{"address":"Oxlade Dr / Turner Ave","latitude":-27.473304,"longitude":153.048757,"name":"85 - OXLADE DR / TURNER AVE","number":85,"cluster":3}
{"address":"Roy St / Lang Pde","latitude":-27.473888,"longitude":153.000599,"name":"138 - ROY ST / LANG PDE","number":138,"cluster":1}
{"address":"Regatta Ferry Terminal / Sylvan Rd","latitude":-27.483168,"longitude":152.996419,"name":"143 - REGATTA FERRY TERMINAL / SYLVAN RD","number":143,"cluster":1}
{"address":"Lamington St / Powerhouse","latitude":-27.467802,"longitude":153.053645,"name":"72 - LAMINGTON ST / POWERHOUSE","number":72,"cluster":3}
{"address":"Coronation Dr / Archer St","latitude":-27.485872,"longitude":152.99347,"name":"145 - CORONATION DR / ARCHER ST","number":145,"cluster":1}
{"address":"VULTURE ST / STANLEY ST","latitude":-27.483259,"longitude":153.026946,"name":"121 - VULTURE ST / STANLEY ST","number":121,"cluster":0}
{"address":"Ann St / Creek St","latitude":-27.464986,"longitude":153.027679,"name":"40 - ANN STREET / CREEK STREET","number":40,"cluster":2}
{"address":"Blair Dr / Sir William McGregor Dr","latitude":-27.494561,"longitude":153.016318,"name":"27 - BLAIR DR / SIR WILLIAM MACGREGOR DR","number":27,"cluster":0}
{"address":"Park Rd / Douglas St","latitude":-27.470987,"longitude":153.004602,"name":"136 - PARK RD / DOUGLAS ST","number":136,"cluster":1}
{"address":"Ann St / Gipps St","latitude":-27.459833,"longitude":153.033445,"name":"49 - ANN STREET / GIPPS STREET","number":49,"cluster":4}
{"address":"Botanical Gardens / QUT","latitude":-27.475922,"longitude":153.0288,"name":"21 - BOTANICAL GARDENS / QUT","number":21,"cluster":2}
{"address":"George St / Ann St","latitude":-27.469075,"longitude":153.021808,"name":"29 - GEORGE STREET / ANN STREET","number":29,"cluster":2}
{"address":"Ann St / Murri Way","latitude":-27.452468,"longitude":153.040565,"name":"63 - ANN ST / MURRI WAY","number":63,"cluster":4}
{"address":"North Quay /Reddacliff Place","latitude":-27.471297,"longitude":153.02257,"name":"26 - NORTH QUAY / REDDACLIFF PLACE","number":26,"cluster":2}
{"address":"Brunswick St / Merthyr Rd","latitude":-27.467498,"longitude":153.0467,"name":"82 - BRUNSWICK ST / MERTHYR RD","number":82,"cluster":3}
{"address":"Merthyr Rd / James St","latitude":-27.463678,"longitude":153.049485,"name":"74 - MERTHYR RD / JAMES ST","number":74,"cluster":3}
{"address":"Albert St Mall / Elizabeth St","latitude":-27.47019,"longitude":153.025852,"name":"15 - ALBERT STREET MALL / ELIZABETH STREET","number":15,"cluster":2}
{"address":"Land St / Coronation Dr","latitude":-27.479453,"longitude":152.997215,"name":"141 - LAND ST / CORONATION DR","number":141,"cluster":1}
{"address":"O'Connell St / Lambert St","latitude":-27.474992,"longitude":153.037647,"name":"130 - O'CONNELL ST / LAMBERT ST","number":130,"cluster":3}
{"address":"Ann St / Gotha St","latitude":-27.46048,"longitude":153.032768,"name":"48 - ANN ST / GOTHA ST","number":48,"cluster":4}
{"address":"Bowen Tce / Bradfield Hwy","latitude":-27.461803,"longitude":153.036021,"name":"53 - BOWEN TCE / BRADFIELD HWY","number":53,"cluster":4}
{"address":"Annerley Rd / Boggo Rd","latitude":-27.494959,"longitude":153.02802,"name":"125 - ANNERLEY RD / BOGGO RD","number":125,"cluster":0}
{"address":"Macquarie St / Beeston St","latitude":-27.459091,"longitude":153.050239,"name":"70 - MACQUARIE ST / BEESTON ST","number":70,"cluster":3}
{"address":"Merthyr Rd / Reginald St","latitude":-27.469931,"longitude":153.043525,"name":"87 - MERTHYR RD / REGINALD ST","number":87,"cluster":3}
{"address":"Albert St Mall / Adelaide St","latitude":-27.468963,"longitude":153.02461,"name":"12 - ALBERT ST MALL / ADELAIDE ST","number":12,"cluster":2}
{"address":"Vernon Tce / Florence St","latitude":-27.455907,"longitude":153.050013,"name":"69 - VERNON TCE / FLORENCE ST","number":69,"cluster":4}
{"address":"Edmondstone St / Vulture St","latitude":-27.480164,"longitude":153.016181,"name":"113 - EDMONDSTONE ST / VULTURE ST","number":113,"cluster":0}
{"address":"Bank St / Mollison St","latitude":-27.476724,"longitude":153.010063,"name":"112 - BANK ST / MOLLISON ST","number":112,"cluster":1}
{"address":"Gladstone Rd / Annerley Rd","latitude":-27.497934,"longitude":153.027333,"name":"127 - GLADSTONE RD / ANNERLEY RD","number":127,"cluster":0}
{"address":"Jane St / Montague Rd","latitude":-27.478214,"longitude":153.006181,"name":"110 - JANE ST / MONTAGUE RD","number":110,"cluster":1}
{"address":"Main St / Rotherham St (Mahoney Park)","latitude":-27.469296,"longitude":153.035533,"name":"90 - MAIN ST / ROTHERHAM ST (MAHONEY PARK)","number":90,"cluster":2}
{"address":"Little Cribb St / Boomerang St","latitude":-27.467971,"longitude":153.009968,"name":"132 - LITTLE CRIBB ST / BOOMERANG ST","number":132,"cluster":1}
{"address":"Grey St / Melbourne St","latitude":-27.474722,"longitude":153.018694,"name":"96 - GREY ST / MELBOURNE ST","number":96,"cluster":0}
{"address":"Queen St / Eagle St","latitude":-27.466369,"longitude":153.029597,"name":"2 - QUEEN ST / EAGLE ST","number":2,"cluster":2}
{"address":"Ann St / Chester St","latitude":-27.453195,"longitude":153.0401,"name":"62 - ANN ST / CHESTER ST","number":62,"cluster":4}
{"address":"Charlotte St / Albert St","latitude":-27.471315,"longitude":153.026627,"name":"123 - CHARLOTTE ST / ALBERT ST","number":123,"cluster":2}
{"address":"Vulture St / Thomas St","latitude":-27.480768,"longitude":153.011121,"name":"103 - VULTURE ST / THOMAS ST","number":103,"cluster":0}
{"address":"George St / Adelaide St","latitude":-27.469902,"longitude":153.022603,"name":"28 - GEORGE ST / ADELAIDE ST","number":28,"cluster":2}
{"address":"Wickham St / Brookes St","latitude":-27.453127,"longitude":153.037559,"name":"60 - WICKHAM STREET / BROOKES STREET","number":60,"cluster":4}
{"address":"Annerley Rd / Grove St","latitude":-27.491284,"longitude":153.027138,"name":"124 - ANNERLEY ROAD / GROVE ST","number":124,"cluster":0}
{"address":"Reddacliff Pl / Queen St","latitude":-27.471332,"longitude":153.022991,"name":"25 - REDDACLIFF PL / QUEEN ST","number":25,"cluster":2}
{"address":"Colchester St / Ernest St","latitude":-27.479876,"longitude":153.021076,"name":"114 - COLCHESTER ST / ERNEST ST","number":114,"cluster":0}
{"address":"WATERLOO ST (GASWORKS PARK) / NEWSTEAD TCE","latitude":-27.448074,"longitude":153.045762,"name":"76 - WATERLOO ST (GASWORKS PARK) / NEWSTEAD TCE","number":76,"cluster":4}
{"address":"Montague Rd / Brereton St","latitude":-27.474227,"longitude":153.011164,"name":"115 - MONTAGUE RD / BRERETON ST","number":115,"cluster":0}
{"address":"Roma St / Ann St","latitude":-27.467963,"longitude":153.0231,"name":"30 - ROMA ST / ANN ST","number":30,"cluster":2}
{"address":"Skyring Tce / Cunningham St","latitude":-27.44979,"longitude":153.044925,"name":"64 - SKYRING TCE / CUNNINGHAM ST","number":64,"cluster":4}
{"address":"Thornton St Ferry Terminal / Main St","latitude":-27.471025,"longitude":153.034306,"name":"92 - THORNTON ST FERRY TERMINAL / MAIN ST","number":92,"cluster":2}
{"address":"Melbourne St / Merivale St","latitude":-27.474755,"longitude":153.016687,"name":"118 - MELBOURNE ST / MERIVALE ST","number":118,"cluster":0}
{"address":"Hastings St / Macquarie St","latitude":-27.460914,"longitude":153.04987,"name":"71 - HASTINGS ST / MACQUARIE ST","number":71,"cluster":3}
{"address":"Park Rd / Railway Tce","latitude":-27.469501,"longitude":153.004129,"name":"135 - PARK RD / RAILWAY TCE","number":135,"cluster":1}
{"address":"Rogers St / Montague Rd","latitude":-27.485078,"longitude":153.002382,"name":"108 - ROGERS ST / MONTAGUE RD","number":108,"cluster":1}
{"address":"Donkin St / Montague Rd","latitude":-27.476474,"longitude":153.008182,"name":"111 - DONKIN ST / MONTAGUE RD","number":111,"cluster":1}
{"address":"Ann St / Boundary St","latitude":-27.461984,"longitude":153.031782,"name":"46 - ANN ST / BOUNDARY ST","number":46,"cluster":2}
{"address":"Margaret St / Albert St","latitude":-27.472598,"longitude":153.028383,"name":"17 - MARGARET ST / ALBERT ST","number":17,"cluster":2}
{"address":"Drury St / Montague Rd","latitude":-27.48872,"longitude":152.999585,"name":"107 - DRURY ST / MONTAGUE RD","number":107,"cluster":1}
{"address":"Creek St / Elizabeth St","latitude":-27.467556,"longitude":153.029202,"name":"3 - CREEK ST / ELIZABETH ST","number":3,"cluster":2}
{"address":"Holman St / Main St","latitude":-27.465733,"longitude":153.034329,"name":"89 - HOLMAN ST / MAIN ST","number":89,"cluster":2}
{"address":"Roma St / Herschel St","latitude":-27.466753,"longitude":153.020012,"name":"33 - ROMA ST / HERSCHEL ST","number":33,"cluster":2}
{"address":"Upper Roma St / Eagle Tce","latitude":-27.466032,"longitude":153.01476,"name":"37 - UPPER ROMA ST / EAGLE TCE","number":37,"cluster":2}
{"address":"Boundary St / Vulture St","latitude":-27.482562,"longitude":153.011831,"name":"120 - BOUNDARY ST / VULTURE ST","number":120,"cluster":0}
{"address":"Sydney St / Brunswick St","latitude":-27.468407,"longitude":153.048273,"name":"83 - SYDNEY ST / BRUNSWICK ST","number":83,"cluster":3}
{"address":"Gardens Point Rd / SE of Goodwill Bridge","latitude":-27.478846,"longitude":153.028296,"name":"20 - GARDENS POINT RD / SE OF GOODWILL BRIDGE","number":20,"cluster":2}
{"address":"New Farm Ferry Terminal / New Farm Park","latitude":-27.471481,"longitude":153.051966,"name":"84 - NEW FARM FERRY TERMINAL / NEW FARM PARK","number":84,"cluster":3}
{"address":"Lower River Tce / Parklands","latitude":-27.478032,"longitude":153.034186,"name":"129 - LOWER RIVER TCE / PARKLANDS","number":129,"cluster":2}
{"address":"Jane St / Boundary St","latitude":-27.479149,"longitude":153.012132,"name":"126 - JANE ST / BOUNDARY ST","number":126,"cluster":0}
{"address":"Dornoch Tce / Hardgrave Rd","latitude":-27.487155,"longitude":153.007281,"name":"105 - DORNOCH TCE / HARDGRAVE RD","number":105,"cluster":1}
{"address":"Besant St / Vulture St","latitude":-27.480885,"longitude":153.014585,"name":"102 - BESANT ST / VULTURE ST","number":102,"cluster":0}
{"address":"Margaret St / Edward St","latitude":-27.47148,"longitude":153.029647,"name":"7 - MARGARET STREET / EDWARD STREET","number":7,"cluster":2}
{"address":"Glenelg St / Merivale St","latitude":-27.478653,"longitude":153.019123,"name":"94 - GLENELG ST / MERIVALE ST","number":94,"cluster":0}
{"address":"Orleigh St / Hoogley St","latitude":-27.489807,"longitude":153.002405,"name":"106 - ORLEIGH ST / HOOGLEY ST","number":106,"cluster":1}
{"address":"Melbourne St /  Edmondstone St","latitude":-27.47666,"longitude":153.013287,"name":"100 - MELBOURNE ST / EDMONDSTONE ST","number":100,"cluster":0}
{"address":"Wickham St / Murri Way","latitude":-27.451793,"longitude":153.039562,"name":"61 - WICKHAM ST / MURRI WAY","number":61,"cluster":4}
{"address":"Brunswick St / Alfred St","latitude":-27.45663,"longitude":153.032779,"name":"51 - BRUNSWICK ST / ALFRED ST","number":51,"cluster":4}
{"address":"Commercial Rd / Skyring Tce","latitude":-27.45296,"longitude":153.048107,"name":"66 - COMMERCIAL RD / SKYRING TCE","number":66,"cluster":4}
{"address":"Jephson St / Sherwood Rd","latitude":-27.485075,"longitude":152.990627,"name":"144 - JEPHSON ST / SHERWOOD RD","number":144,"cluster":1}
{"address":"Sandford St / Austral St","latitude":-27.492489,"longitude":152.996768,"name":"148 - SANDFORD ST / AUSTRAL ST","number":148,"cluster":1}
{"address":"Brisbane St / Glen Rd","latitude":-27.487187,"longitude":152.993052,"name":"146 - BRISBANE ST / GLEN RD","number":146,"cluster":1}
{"address":"Wharf St / Adelaide St","latitude":-27.464647,"longitude":153.029361,"name":"42 - WHARF STREET / ADELAIDE STREET","number":42,"cluster":2}
{"address":"Edward St / Queen St","latitude":-27.468206,"longitude":153.026744,"name":"10 - EDWARD STREET / QUEEN STREET","number":10,"cluster":2}
{"address":"Gardens Point Rd / Adj. Bridge","latitude":-27.479004,"longitude":153.028853,"name":"19 - GARDENS POINT ROAD / ADJ. BRIDGE","number":19,"cluster":2}
{"address":"Alice St / Edward St","latitude":-27.472291,"longitude":153.030639,"name":"6 - ALICE STREET / EDWARD STREET","number":6,"cluster":2}
{"address":"Sylvan Rd / Coronation Dr","latitude":-27.482081,"longitude":152.995804,"name":"142 - SYLVAN RD / CORONATION DR","number":142,"cluster":1}
{"address":"Russell St / Edmondstone St","latitude":-27.478235,"longitude":153.015173,"name":"101 - RUSSELL ST / EDMONDSTONE ST","number":101,"cluster":0}
{"address":"Shafston Ave / Thorn St","latitude":-27.476792,"longitude":153.039186,"name":"131 - SHAFSTON AVE / THORN ST","number":131,"cluster":3}
{"address":"Cordelia St / Peel St","latitude":-27.474011,"longitude":153.014541,"name":"99 - CORDELIA ST / PEEL ST","number":99,"cluster":0}
{"address":"East St / Ann St","latitude":-27.455472,"longitude":153.037775,"name":"58 - EAST ST / ANN ST","number":58,"cluster":4}
{"address":"Bridge St / Wickham St","latitude":-27.454746,"longitude":153.036154,"name":"57 - BRIDGE ST / WICKHAM ST","number":57,"cluster":4}
{"address":"Tank St / George St","latitude":-27.468678,"longitude":153.019801,"name":"32 - TANK ST / GEORGE ST","number":32,"cluster":2}
{"address":"Sydney St / Moray St","latitude":-27.471422,"longitude":153.04519,"name":"86 - SYDNEY ST / MORAY ST","number":86,"cluster":3}
{"address":"Ann St / Wharf St","latitude":-27.46383,"longitude":153.029125,"name":"41 - ANN ST / WHARF ST","number":41,"cluster":2}
{"address":"Griffith St / Riverview Ct","latitude":-27.471886,"longitude":153.041854,"name":"81 - GRIFFITH ST / RIVERVIEW CT","number":81,"cluster":3}
{"address":"Hardgrave Rd / Skinner St","latitude":-27.482082,"longitude":153.006981,"name":"104 - HARDGRAVE RD / SKINNER ST","number":104,"cluster":1}
{"address":"Makerston St / Roma St","latitude":-27.467037,"longitude":153.018471,"name":"34 - MAKERSTON ST / ROMA ST","number":34,"cluster":2}
{"address":"Bouquet St / Montague Rd","latitude":-27.471712,"longitude":153.013188,"name":"128 - BOUQUET ST / MONTAGUE RD","number":128,"cluster":0}
{"address":"Albert St Mall / Adelaide St","latitude":-27.469183,"longitude":153.024719,"name":"13 - ALBERT STREET MALL / ADELAIDE STREET","number":13,"cluster":2}
{"address":"Roma St / Garrick St","latitude":-27.466307,"longitude":153.017351,"name":"36 - ROMA STREET / GARRICK STREET","number":36,"cluster":2}
{"address":"Kilroe St / Dorsey St","latitude":-27.472413,"longitude":153.001803,"name":"137 - KILROE ST / DORSEY ST","number":137,"cluster":1}
{"address":"Balfour St / Brunswick St","latitude":-27.463431,"longitude":153.041031,"name":"79 - BALFOUR ST / BRUNSWICK ST","number":79,"cluster":3}
{"address":"38 - Ann St / Creek St","latitude":-27.46588,"longitude":153.026861,"name":"38 - ANN ST / CREEK ST","number":38,"cluster":2}
{"address":"Albert St Mall / Elizabeth St","latitude":-27.47011,"longitude":153.025627,"name":"14 - ALBERT STREET MALL / ELIZABETH STREET","number":14,"cluster":2}
{"address":"Turbot St / Bowen St","latitude":-27.462665,"longitude":153.029087,"name":"45 - TURBOT ST / BOWEN ST","number":45,"cluster":2}
{"address":"Edward St / Queen St","latitude":-27.46812,"longitude":153.02682,"name":"1 - EDWARD ST / QUEEN ST","number":1,"cluster":2}
{"address":"Cordelia St / Ernest St","latitude":-27.481137,"longitude":153.019284,"name":"116 - CORDELIA ST / ERNEST ST","number":116,"cluster":0}
